$GPGSV,3,2,10,15,08,350,22,24,71,021,40,25,38,231,28,29,36,303,26*78
$GPGSV,3,3,10,42,41,047,30,50,41,047,*78
$GLGSV,2,1,06,73,41,203,25,79,18,052,,80,68,103,39,82,47,153,31*65
$GLGSV,2,2,06,83,68,319,23,84,15,327,*62
$GNGLL,,,,,033519.00,V,N*59
$GNRMC,033520.00,V,,,,,,,270115,,,N*64
$GNVTG,,,,,,,,,N*2E
$GNGGA,033520.00,,,,,0,03,17.51,,,,,,*7E
$GNGSA,A,1,06,24,15,,,,,,,,,,17.54,17.51,1.00*1E
$GNGSA,A,1,,,,,,,,,,,,,17.54,17.51,1.00*1A
$GPGSV,3,1,10,02,48,081,38,06,24,128,34,12,58,175,38,14,21,242,21*7D
$GPGSV,3,2,10,15,08,350,20,24,71,021,40,25,38,231,28,29,36,303,28*74
$GPGSV,3,3,10,42,41,047,31,50,41,047,*79
$GLGSV,2,1,06,73,41,203,26,79,18,052,,80,68,103,39,82,47,153,30*67
$GLGSV,2,2,06,83,68,319,25,84,15,327,*64
$GNGLL,,,,,033520.00,V,N*53
$GNRMC,033521.00,V,,,,,,,270115,,,N*65
$GNVTG,,,,,,,,,N*2E
$GNGGA,033521.00,,,,,0,03,17.53,,,,,,*7D
$GNGSA,A,1,06,24,15,,,,,,,,,,17.56,17.53,1.00*1E
$GNGSA,A,1,,,,,,,,,,,,,17.56,17.53,1.00*1A
$GPGSV,3,1,10,02,48,081,37,06,24,128,34,12,58,175,39,14,21,242,20*72
$GPGSV,3,2,10,15,08,350,19,24,71,021,41,25,38,231,28,29,36,303,28*7F
$GPGSV,3,3,10,42,41,047,31,50,41,047,*79
$GLGSV,2,1,06,73,41,203,25,79,18,052,,80,68,103,39,82,47,153,30*64
$GLGSV,2,2,06,83,68,319,25,84,15,327,*64
$GNGLL,,,,,033521.00,V,N*52
$GNRMC,033522.00,V,,,,,,,270115,,,N*66
$GNVTG,,,,,,,,,N*2E
$GNGGA,033522.00,,,,,0,03,17.55,,,,,,*78
$GNGSA,A,1,06,24,15,,,,,,,,,,17.58,17.55,1.00*16
$GNGSA,A,1,,,,,,,,,,,,,17.58,17.55,1.00*12
$GPGSV,3,1,10,02,48,081,36,06,24,128,34,12,58,175,39,14,21,242,19*79
$GPGSV,3,2,10,15,08,350,18,24,71,021,41,25,38,231,28,29,36,303,27*71
$GPGSV,3,3,10,42,41,047,31,50,41,047,*79
$GLGSV,2,1,06,73,41,203,25,79,18,052,,80,68,103,37,82,47,153,29*62
$GLGSV,2,2,06,83,68,319,26,84,15,327,*67
$GNGLL,,,,,033522.00,V,N*51
$GNRMC,033523.00,V,,,,,,,270115,,,N*67
$GNVTG,,,,,,,,,N*2E
$GNGGA,033523.00,,,,,0,03,17.57,,,,,,*7B
$GNGSA,A,1,06,24,15,,,,,,,,,,17.59,17.57,1.00*15
$GNGSA,A,1,,,,,,,,,,,,,17.59,17.57,1.00*11
$GPGSV,3,1,10,02,48,081,37,06,24,128,34,12,58,175,36,14,21,242,17*79
$GPGSV,3,2,10,15,08,350,17,24,71,021,41,25,38,231,28,29,36,303,28*71
$GPGSV,3,3,10,42,41,047,30,50,41,047,*78
$GLGSV,2,1,06,73,41,203,24,79,18,052,,80,68,103,35,82,47,153,28*60
$GLGSV,2,2,06,83,68,319,24,84,15,327,*65
$GNGLL,,,,,033523.00,V,N*50
$GNRMC,033524.00,V,,,,,,,270115,,,N*60
$GNVTG,,,,,,,,,N*2E
$GNGGA,033524.00,,,,,0,03,17.59,,,,,,*72
$GNGSA,A,1,06,24,15,,,,,,,,,,17.61,17.59,1.00*10
$GNGSA,A,1,,,,,,,,,,,,,17.61,17.59,1.00*14
$GPGSV,3,1,10,02,48,081,39,06,24,128,34,12,58,175,36,14,21,242,15*75
$GPGSV,3,2,10,15,08,350,15,24,71,021,40,25,38,231,28,29,36,303,28*72
$GPGSV,3,3,10,42,41,047,30,50,41,047,*78
$GLGSV,2,1,06,73,41,203,24,79,18,052,,80,68,103,35,82,47,153,33*6A
$GLGSV,2,2,06,83,68,319,22,84,15,327,*63
$GNGLL,,,,,033524.00,V,N*57
$GNRMC,033525.00,V,,,,,,,270115,,,N*61
$GNVTG,,,,,,,,,N*2E
$GNGGA,033525.00,,,,,0,03,17.60,,,,,,*79
$GNGSA,A,1,06,24,15,,,,,,,,,,17.63,17.60,1.00*18
$GNGSA,A,1,,,,,,,,,,,,,17.63,17.60,1.00*1C
$GPGSV,3,1,10,02,48,081,42,06,24,128,30,12,58,175,32,14,21,242,18*74
$GPGSV,3,2,10,15,08,350,17,24,71,021,37,25,38,231,28,29,36,303,30*79
$GPGSV,3,3,10,42,41,047,29,50,41,047,*70
$GLGSV,2,1,06,73,41,203,25,79,18,052,,80,68,103,32,82,47,153,37*68
$GLGSV,2,2,06,83,68,319,19,84,15,327,*6B
$GNGLL,,,,,033525.00,V,N*56
$GNRMC,033526.00,V,,,,,,,270115,,,N*62
$GNVTG,,,,,,,,,N*2E
$GNGGA,033526.00,,,,,0,03,17.62,,,,,,*78
$GNGSA,A,1,06,24,15,,,,,,,,,,17.65,17.62,1.00*1C
$GNGSA,A,1,,,,,,,,,,,,,17.65,17.62,1.00*18
$GPGSV,3,1,10,02,48,081,41,06,24,128,34,12,58,175,33,14,21,242,19*73
$GPGSV,3,2,10,15,08,350,19,24,71,021,37,25,38,231,27,29,36,303,30*78
$GPGSV,3,3,10,42,41,047,26,50,41,047,*7F
$GLGSV,2,1,06,73,41,203,26,79,18,052,22,80,68,103,33,82,47,153,37*6A
$GLGSV,2,2,06,83,68,319,20,84,15,327,*61
$GNGLL,,,,,033526.00,V,N*55
$GNRMC,033527.00,V,,,,,,,270115,,,N*63
$GNVTG,,,,,,,,,N*2E
$GNGGA,033527.00,,,,,0,03,17.64,,,,,,*7F
$GNGSA,A,1,06,24,15,,,,,,,,,,17.67,17.64,1.00*18
$GNGSA,A,1,,,,,,,,,,,,,17.67,17.64,1.00*1C
$GPGSV,3,1,10,02,48,081,39,06,24,128,29,12,58,175,33,14,21,242,21*7B
$GPGSV,3,2,10,15,08,350,19,24,71,021,32,25,38,231,25,29,36,303,30*7F
$GPGSV,3,3,10,42,41,047,,50,41,047,*7B
$GLGSV,2,1,06,73,41,203,25,79,18,052,23,80,68,103,36,82,47,153,36*6C
$GLGSV,2,2,06,83,68,319,20,84,15,327,*61
$GNGLL,,,,,033527.00,V,N*54
$GNRMC,033528.00,V,,,,,,,270115,,,N*6C
$GNVTG,,,,,,,,,N*2E
$GNGGA,033528.00,,,,,0,03,17.66,,,,,,*72
$GNGSA,A,1,06,24,15,,,,,,,,,,17.69,17.66,1.00*14
$GNGSA,A,1,,,,,,,,,,,,,17.69,17.66,1.00*10
$GPGSV,3,1,10,02,48,081,38,06,24,128,29,12,58,175,36,14,21,242,21*7F
$GPGSV,3,2,10,15,08,350,19,24,71,021,34,25,38,231,23,29,36,303,29*77
$GPGSV,3,3,10,42,41,047,,50,41,047,*7B
$GLGSV,2,1,06,73,41,203,25,79,18,052,24,80,68,103,37,82,47,153,35*69
$GLGSV,2,2,06,83,68,319,18,84,15,327,*6A
$GNGLL,,,,,033528.00,V,N*5B
$GNRMC,033529.00,V,,,,,,,270115,,,N*6D
$GNVTG,,,,,,,,,N*2E
$GNGGA,033529.00,,,,,0,03,17.68,,,,,,*7D
$GNGSA,A,1,06,24,15,,,,,,,,,,17.71,17.68,1.00*13
$GNGSA,A,1,,,,,,,,,,,,,17.71,17.68,1.00*17
$GPGSV,3,1,10,02,48,081,37,06,24,128,31,12,58,175,36,14,21,242,23*7B
$GPGSV,3,2,10,15,08,350,18,24,71,021,35,25,38,231,20,29,36,303,26*7B
$GPGSV,3,3,10,42,41,047,,50,41,047,*7B
$GLGSV,2,1,06,73,41,203,26,79,18,052,25,80,68,103,39,82,47,153,36*66
$GLGSV,2,2,06,83,68,319,18,84,15,327,*6A
$GNGLL,,,,,033529.00,V,N*5A
$GNRMC,033530.00,V,,,,,,,270115,,,N*65
$GNVTG,,,,,,,,,N*2E
$GNGGA,033530.00,,,,,0,03,17.70,,,,,,*7C
$GNGSA,A,1,06,24,15,,,,,,,,,,17.73,17.70,1.00*18
$GNGSA,A,1,,,,,,,,,,,,,17.73,17.70,1.00*1C
$GPGSV,3,1,10,02,48,081,38,06,24,128,31,12,58,175,35,14,21,242,23*77
$GPGSV,3,2,10,15,08,350,18,24,71,021,35,25,38,231,17,29,36,303,26*7F
$GPGSV,3,3,10,42,41,047,,50,41,047,*7B
$GLGSV,2,1,06,73,41,203,25,79,18,052,25,80,68,103,36,82,47,153,33*6F
$GLGSV,2,2,06,83,68,319,17,84,15,327,*65
$GNGLL,,,,,033530.00,V,N*52
$GNRMC,033531.00,V,,,,,,,270115,,,N*64
$GNVTG,,,,,,,,,N*2E
$GNGGA,033531.00,,,,,0,03,17.72,,,,,,*7F
$GNGSA,A,1,06,24,15,,,,,,,,,,17.75,17.72,1.00*1C
$GNGSA,A,1,,,,,,,,,,,,,17.75,17.72,1.00*18
$GPGSV,3,1,10,02,48,081,38,06,24,128,32,12,58,175,36,14,21,242,23*77
$GPGSV,3,2,10,15,08,350,18,24,70,021,34,25,38,231,17,29,36,303,25*7C
$GPGSV,3,3,10,42,41,047,31,50,41,047,*79
$GLGSV,2,1,06,73,41,203,27,79,18,052,25,80,68,103,37,82,47,153,33*6C
$GLGSV,2,2,06,83,68,319,18,84,15,327,*6A
$GNGLL,,,,,033531.00,V,N*53
$GNRMC,033532.00,V,,,,,,,270115,,,N*67
$GNVTG,,,,,,,,,N*2E
$GNGGA,033532.00,,,,,0,03,17.74,,,,,,*7A
$GNGSA,A,1,06,24,15,,,,,,,,,,17.77,17.74,1.00*18
$GNGSA,A,1,,,,,,,,,,,,,17.77,17.74,1.00*1C
$GPGSV,3,1,10,02,48,081,37,06,24,128,33,12,58,175,38,14,21,242,24*70
$GPGSV,3,2,10,15,08,350,19,24,70,021,35,25,38,230,18,29,36,303,23*74
$GPGSV,3,3,10,42,41,047,33,50,41,047,*7B
$GLGSV,2,1,06,73,41,203,27,79,18,052,25,80,68,103,38,82,47,153,31*61
$GLGSV,2,2,06,83,68,319,20,84,15,327,*61
$GNGLL,,,,,033532.00,V,N*50
$GNRMC,033533.00,A,3157.10566,S,11549.43007,E,0.159,,270115,,,A*77
$GNVTG,,T,,M,0.159,N,0.294,K,A*3F
$GNGGA,033533.00,3157.10566,S,11549.43007,E,1,05,1.69,43.2,M,-30.8,M,,*4E
$GNGSA,A,3,06,12,24,02,15,,,,,,,,2.37,1.69,1.65*13
$GNGSA,A,3,,,,,,,,,,,,,2.37,1.69,1.65*16
$GPGSV,3,1,10,02,48,081,38,06,24,128,33,12,58,174,36,14,21,242,24*70
$GPGSV,3,2,10,15,08,350,17,24,70,021,35,25,38,230,18,29,36,303,21*78
$GPGSV,3,3,10,42,41,047,31,50,41,047,*79
$GLGSV,2,1,06,73,41,203,27,79,18,052,25,80,68,103,37,82,47,153,33*6C
$GLGSV,2,2,06,83,68,319,21,84,15,327,*60
$GNGLL,3157.10566,S,11549.43007,E,033533.00,A,A*63
$GNRMC,033534.00,A,3157.10551,S,11549.43027,E,0.092,,270115,,,A*70
$GNVTG,,T,,M,0.092,N,0.170,K,A*30
$GNGGA,033534.00,3157.10551,S,11549.43027,E,1,05,1.69,43.4,M,-30.8,M,,*49
$GNGSA,A,3,06,12,24,02,15,,,,,,,,2.37,1.69,1.65*13
$GNGSA,A,3,,,,,,,,,,,,,2.37,1.69,1.65*16
$GPGSV,3,1,10,02,48,081,38,06,24,128,33,12,58,174,36,14,21,242,23*77
$GPGSV,3,2,10,15,08,350,18,24,70,021,34,25,38,230,18,29,36,303,22*75
$GPGSV,3,3,10,42,41,047,30,50,41,047,*78
$GLGSV,2,1,06,73,41,203,26,79,18,052,25,80,68,103,37,82,47,153,34*6A
$GLGSV,2,2,06,83,68,319,20,84,15,327,*61
$GNGLL,3157.10551,S,11549.43027,E,033534.00,A,A*62
$GNRMC,033535.00,A,3157.10528,S,11549.43016,E,0.104,,270115,,,A*73
$GNVTG,,T,,M,0.104,N,0.192,K,A*32
$GNGGA,033535.00,3157.10528,S,11549.43016,E,1,05,1.69,43.2,M,-30.8,M,,*42
$GNGSA,A,3,06,12,24,02,15,,,,,,,,2.37,1.69,1.65*13
$GNGSA,A,3,,,,,,,,,,,,,2.37,1.69,1.65*16
$GPGSV,3,1,10,02,48,081,37,06,24,128,33,12,58,174,35,14,21,242,23*7B
$GPGSV,3,2,10,15,08,350,20,24,70,021,33,25,38,230,17,29,37,303,25*70
$GPGSV,3,3,10,42,41,047,30,50,41,047,*78
$GLGSV,2,1,06,73,41,203,26,79,18,052,26,80,68,103,37,82,47,153,34*69
$GLGSV,2,2,06,83,68,319,18,84,15,327,*6A
$GNGLL,3157.10528,S,11549.43016,E,033535.00,A,A*6F
$GNRMC,033536.00,A,3157.10513,S,11549.43011,E,0.087,,270115,,,A*75
$GNVTG,,T,,M,0.087,N,0.160,K,A*35
$GNGGA,033536.00,3157.10513,S,11549.43011,E,1,05,1.69,43.3,M,-30.8,M,,*4F
$GNGSA,A,3,06,12,24,02,15,,,,,,,,2.37,1.69,1.65*13
$GNGSA,A,3,,,,,,,,,,,,,2.37,1.69,1.65*16
$GPGSV,3,1,10,02,48,081,38,06,24,128,32,12,58,174,34,14,21,242,22*75
$GPGSV,3,2,10,15,08,350,20,24,70,021,32,25,38,230,15,29,37,303,26*70
$GPGSV,3,3,10,42,41,047,31,50,41,047,*79
$GLGSV,2,1,06,73,41,203,26,79,18,052,25,80,68,103,35,82,47,153,34*68
$GLGSV,2,2,06,83,68,319,17,84,15,327,*65
$GNGLL,3157.10513,S,11549.43011,E,033536.00,A,A*63
$GNRMC,033537.00,A,3157.10501,S,11549.43000,E,0.026,,270115,,,A*7C
$GNVTG,,T,,M,0.026,N,0.049,K,A*34
$GNGGA,033537.00,3157.10501,S,11549.43000,E,1,05,1.69,43.4,M,-30.8,M,,*4A
$GNGSA,A,3,06,12,24,02,15,,,,,,,,2.37,1.69,1.65*13
$GNGSA,A,3,,,,,,,,,,,,,2.37,1.69,1.65*16
$GPGSV,3,1,10,02,48,081,38,06,24,128,32,12,58,174,34,14,21,242,21*76
$GPGSV,3,2,10,15,08,350,20,24,70,021,32,25,38,230,13,29,37,303,26*76
$GPGSV,3,3,10,42,41,047,32,50,41,047,*7A
$GLGSV,2,1,06,73,41,203,25,79,18,052,25,80,68,103,37,82,47,153,34*69
$GLGSV,2,2,06,83,68,319,17,84,15,327,*65
$GNGLL,3157.10501,S,11549.43000,E,033537.00,A,A*61
$GNRMC,033538.00,A,3157.10486,S,11549.42978,E,0.037,,270115,,,A*7A
$GNVTG,,T,,M,0.037,N,0.068,K,A*37
$GNGGA,033538.00,3157.10486,S,11549.42978,E,1,05,1.69,43.3,M,-30.8,M,,*4B
$GNGSA,A,3,06,12,24,02,15,,,,,,,,2.37,1.69,1.65*13
$GNGSA,A,3,,,,,,,,,,,,,2.37,1.69,1.65*16
$GPGSV,3,1,10,02,48,081,37,06,24,128,32,12,58,174,35,14,21,242,20*79
$GPGSV,3,2,10,15,08,350,22,24,70,021,32,25,38,230,13,29,37,303,26*74
$GPGSV,3,3,10,42,41,047,32,50,41,047,*7A
$GLGSV,2,1,06,73,41,203,25,79,18,052,27,80,68,103,38,82,47,153,36*66
$GLGSV,2,2,06,83,68,319,17,84,15,327,*65
$GNGLL,3157.10486,S,11549.42978,E,033538.00,A,A*67
$GNRMC,033539.00,A,3157.10527,S,11549.42949,E,0.139,,270115,,,A*7C
$GNVTG,,T,,M,0.139,N,0.258,K,A*39
$GNGGA,033539.00,3157.10527,S,11549.42949,E,1,07,1.60,44.4,M,-30.8,M,,*49
$GNGSA,A,3,06,12,24,02,15,,,,,,,,2.19,1.60,1.50*10
$GNGSA,A,3,80,82,,,,,,,,,,,2.19,1.60,1.50*17
$GPGSV,3,1,10,02,48,081,36,06,24,128,33,12,58,174,36,14,21,242,22*78
$GPGSV,3,2,10,15,08,350,22,24,70,021,33,25,38,230,14,29,37,303,25*71
$GPGSV,3,3,10,42,41,047,33,50,41,047,*7B
$GLGSV,2,1,06,73,41,203,26,79,18,052,28,80,68,102,39,82,47,153,36*6A
$GLGSV,2,2,06,83,68,319,20,84,15,327,*61
$GNGLL,3157.10527,S,11549.42949,E,033539.00,A,A*6E
$GNRMC,033540.00,A,3157.10520,S,11549.42942,E,0.063,,270115,,,A*70
$GNVTG,,T,,M,0.063,N,0.117,K,A*3F
$GNGGA,033540.00,3157.10520,S,11549.42942,E,1,07,1.60,44.8,M,-30.8,M,,*47
$GNGSA,A,3,06,12,24,02,15,,,,,,,,2.19,1.60,1.50*10
$GNGSA,A,3,80,82,,,,,,,,,,,2.19,1.60,1.50*17
$GPGSV,3,1,10,02,48,081,36,06,24,128,34,12,58,174,37,14,21,242,23*7F
$GPGSV,3,2,10,15,08,350,23,24,70,021,33,25,38,230,15,29,37,303,23*77
$GPGSV,3,3,10,42,41,047,33,50,41,047,*7B
$GLGSV,2,1,06,73,41,203,27,79,18,052,28,80,68,102,39,82,47,153,35*68
$GLGSV,2,2,06,83,68,319,21,84,15,327,*60
$GNGLL,3157.10520,S,11549.42942,E,033540.00,A,A*6C
$GNRMC,033541.00,A,3157.10524,S,11549.42923,E,0.109,,270115,,,A*7F
$GNVTG,,T,,M,0.109,N,0.202,K,A*35
$GNGGA,033541.00,3157.10524,S,11549.42923,E,1,07,1.60,44.7,M,-30.8,M,,*4A
$GNGSA,A,3,06,12,24,02,15,,,,,,,,2.19,1.60,1.50*10
$GNGSA,A,3,80,82,,,,,,,,,,,2.19,1.60,1.50*17
$GPGSV,3,1,10,02,48,081,37,06,24,128,34,12,58,174,36,14,21,242,23*7F
$GPGSV,3,2,10,15,08,350,24,24,70,021,32,25,38,230,15,29,37,303,21*73
$GPGSV,3,3,10,42,41,047,33,50,41,047,34*7C
$GLGSV,2,1,06,73,41,203,27,79,18,052,28,80,68,102,38,82,47,153,37*6B
$GLGSV,2,2,06,83,68,319,22,84,15,327,*63
$GNGLL,3157.10524,S,11549.42923,E,033541.00,A,A*6E
$GNRMC,033542.00,A,3157.10523,S,11549.42900,E,0.022,,270115,,,A*72
$GNVTG,,T,,M,0.022,N,0.040,K,A*39
$GNGGA,033542.00,3157.10523,S,11549.42900,E,1,07,1.60,44.8,M,-30.8,M,,*40
$GNGSA,A,3,06,12,24,02,15,,,,,,,,2.19,1.60,1.50*10
$GNGSA,A,3,80,82,,,,,,,,,,,2.19,1.60,1.50*17
$GPGSV,3,1,10,02,48,081,38,06,24,128,34,12,58,174,35,14,21,242,22*72
$GPGSV,3,2,10,15,08,350,24,24,70,021,30,25,38,230,15,29,37,303,21*71
$GPGSV,3,3,10,42,41,047,33,50,41,047,34*7C
$GLGSV,2,1,06,73,41,203,27,79,18,052,29,80,68,102,38,82,47,153,38*65
$GLGSV,2,2,06,83,68,319,22,84,15,327,*63
$GNGLL,3157.10523,S,11549.42900,E,033542.00,A,A*6B
$GNRMC,033543.00,A,3157.10518,S,11549.42866,E,0.201,,270115,,,A*79
$GNVTG,,T,,M,0.201,N,0.373,K,A*39
$GNGGA,033543.00,3157.10518,S,11549.42866,E,1,07,1.60,45.0,M,-30.8,M,,*41
$GNGSA,A,3,06,12,24,02,15,,,,,,,,2.19,1.60,1.50*10
$GNGSA,A,3,80,82,,,,,,,,,,,2.19,1.60,1.50*17
$GPGSV,3,1,10,02,48,081,40,06,24,128,33,12,58,174,30,14,21,242,21*7C
$GPGSV,3,2,10,15,08,350,25,24,70,021,28,25,38,230,14,29,37,303,23*7A
$GPGSV,3,3,10,42,41,047,32,50,41,047,34*7D
$GLGSV,2,1,06,73,41,203,27,79,18,052,29,80,68,102,38,82,47,153,37*6A
$GLGSV,2,2,06,83,68,319,20,84,15,327,*61
$GNGLL,3157.10518,S,11549.42866,E,033543.00,A,A*63
$GNRMC,033544.00,A,3157.10516,S,11549.42837,E,0.012,,270115,,,A*74
$GNVTG,,T,,M,0.012,N,0.022,K,A*3E
$GNGGA,033544.00,3157.10516,S,11549.42837,E,1,07,1.60,44.9,M,-30.8,M,,*44
$GNGSA,A,3,06,12,24,02,15,,,,,,,,2.19,1.60,1.50*10
$GNGSA,A,3,80,82,,,,,,,,,,,2.19,1.60,1.50*17
$GPGSV,3,1,10,02,48,081,41,06,24,128,32,12,58,174,23,14,21,242,20*7F
$GPGSV,3,2,10,15,08,350,25,24,70,021,16,25,38,230,13,29,37,303,27*74
$GPGSV,3,3,10,42,45,040,32,50,41,047,35*7F
$GLGSV,2,1,06,73,41,203,26,79,18,052,29,80,68,102,36,82,47,153,37*65
$GLGSV,2,2,06,83,68,319,,84,15,327,*63
$GNGLL,3157.10516,S,11549.42837,E,033544.00,A,A*6E
$GNRMC,033545.00,A,3157.10511,S,11549.42810,E,0.097,,270115,,,A*7A
$GNVTG,,T,,M,0.097,N,0.180,K,A*3A
$GNGGA,033545.00,3157.10511,S,11549.42810,E,1,07,1.60,44.8,M,-30.8,M,,*46
$GNGSA,A,3,06,12,24,02,15,,,,,,,,2.19,1.60,1.50*10
$GNGSA,A,3,80,82,,,,,,,,,,,2.19,1.60,1.50*17
$GPGSV,3,1,10,02,48,081,40,06,24,128,32,12,58,174,25,14,21,242,19*72
$GPGSV,3,2,10,15,08,350,25,24,70,021,17,25,38,230,14,29,37,303,27*72
$GPGSV,3,3,10,42,45,040,32,50,41,047,35*7F
$GLGSV,2,1,06,73,41,203,26,79,18,052,29,80,68,102,36,82,47,153,36*64
$GLGSV,2,2,06,83,68,319,,84,15,327,*63
$GNGLL,3157.10511,S,11549.42810,E,033545.00,A,A*6D
$GNRMC,033546.00,A,3157.10508,S,11549.42786,E,0.236,,270115,,,A*78
$GNVTG,,T,,M,0.236,N,0.438,K,A*35
$GNGGA,033546.00,3157.10508,S,11549.42786,E,1,07,1.60,45.0,M,-30.8,M,,*44
$GNGSA,A,3,06,12,24,02,15,,,,,,,,2.19,1.60,1.50*10
$GNGSA,A,3,80,82,,,,,,,,,,,2.19,1.60,1.50*17
$GPGSV,3,1,10,02,48,081,40,06,24,128,33,12,58,174,27,14,21,242,18*70
$GPGSV,3,2,10,15,08,350,25,24,70,021,19,25,38,230,15,29,37,303,27*7D
$GPGSV,3,3,10,42,45,040,32,50,41,047,35*7F
$GLGSV,2,1,06,73,41,203,26,79,18,052,30,80,68,102,36,82,47,153,36*6C
$GLGSV,2,2,06,83,68,319,19,84,15,327,*6B
$GNGLL,3157.10508,S,11549.42786,E,033546.00,A,A*66
$GNRMC,033547.00,A,3157.10503,S,11549.42765,E,0.058,,270115,,,A*75
$GNVTG,,T,,M,0.058,N,0.108,K,A*39
$GNGGA,033547.00,3157.10503,S,11549.42765,E,1,07,1.60,45.3,M,-30.8,M,,*40
$GNGSA,A,3,06,12,24,02,15,,,,,,,,2.19,1.60,1.50*10
$GNGSA,A,3,80,82,,,,,,,,,,,2.19,1.60,1.50*17
$GPGSV,3,1,10,02,48,081,40,06,24,128,33,12,58,174,28,14,21,242,20*74
$GPGSV,3,2,10,15,08,350,24,24,70,021,19,25,38,230,16,29,37,303,27*7F
$GPGSV,3,3,10,42,45,040,31,50,41,047,35*7C
$GLGSV,2,1,06,73,41,203,26,79,18,052,30,80,68,102,36,82,47,153,35*6F
$GLGSV,2,2,06,83,68,319,,84,15,327,*63
$GNGLL,3157.10503,S,11549.42765,E,033547.00,A,A*61
$GNRMC,033548.00,A,3157.10500,S,11549.42746,E,0.045,,270115,,,A*74
$GNVTG,,T,,M,0.045,N,0.084,K,A*30
$GNGGA,033548.00,3157.10500,S,11549.42746,E,1,07,1.66,45.3,M,-30.8,M,,*4B
$GNGSA,A,3,06,12,24,02,15,,,,,,,,2.48,1.66,1.84*1B
$GNGSA,A,3,80,82,,,,,,,,,,,2.48,1.66,1.84*1C
$GPGSV,3,1,10,02,48,081,40,06,24,128,33,12,58,174,29,14,21,242,21*74
$GPGSV,3,2,10,15,08,350,24,24,70,021,23,25,38,230,18,29,37,303,26*79
$GPGSV,3,3,10,42,45,040,31,50,41,047,35*7C
$GLGSV,2,1,06,73,41,203,26,79,18,052,28,80,68,102,34,82,47,153,34*65
$GLGSV,2,2,06,83,68,319,,84,15,327,*63
$GNGLL,3157.10500,S,11549.42746,E,033548.00,A,A*6C
$GNRMC,033549.00,A,3157.10489,S,11549.42724,E,0.234,,270115,,,A*75
$GNVTG,,T,,M,0.234,N,0.433,K,A*3C
$GNGGA,033549.00,3157.10489,S,11549.42724,E,1,07,1.61,45.7,M,-30.8,M,,*4D
$GNGSA,A,3,06,12,24,02,15,,,,,,,,2.19,1.61,1.50*11
$GNGSA,A,3,80,82,,,,,,,,,,,2.19,1.61,1.50*16
$GPGSV,3,1,10,02,48,081,39,06,24,128,34,12,58,174,32,14,21,242,22*74
$GPGSV,3,2,10,15,08,350,25,24,70,021,26,25,38,230,20,29,37,303,25*75
$GPGSV,3,3,10,42,45,040,31,50,41,047,34*7D
$GLGSV,2,1,06,73,41,203,26,79,18,052,28,80,68,102,35,82,47,153,34*64
$GLGSV,2,2,06,83,68,319,,84,15,327,*63
$GNGLL,3157.10489,S,11549.42724,E,033549.00,A,A*69
$GNRMC,033550.00,A,3157.10459,S,11549.42700,E,0.285,,270115,,,A*7C
$GNVTG,,T,,M,0.285,N,0.528,K,A*3D
$GNGGA,033550.00,3157.10459,S,11549.42700,E,1,07,1.61,46.1,M,-30.8,M,,*4B
$GNGSA,A,3,06,12,24,02,15,,,,,,,,2.19,1.61,1.50*11
$GNGSA,A,3,80,82,,,,,,,,,,,2.19,1.61,1.50*16
$GPGSV,3,1,10,02,48,081,36,06,24,128,35,12,58,174,37,14,21,242,25*78
$GPGSV,3,2,10,15,08,350,23,24,70,021,34,25,38,230,23,29,37,303,24*72
$GPGSV,3,3,10,42,45,040,32,50,41,047,30*7A
$GLGSV,2,1,06,73,41,203,32,79,18,052,28,80,68,102,39,82,47,153,30*69
$GLGSV,2,2,06,83,68,319,20,84,15,327,*61
$GNGLL,3157.10459,S,11549.42700,E,033550.00,A,A*6A
$GNRMC,033551.00,A,3157.10437,S,11549.42694,E,0.103,,270115,,,A*74
$GNVTG,,T,,M,0.103,N,0.191,K,A*36
$GNGGA,033551.00,3157.10437,S,11549.42694,E,1,07,1.61,46.5,M,-30.8,M,,*4A
$GNGSA,A,3,06,12,24,02,15,,,,,,,,2.19,1.61,1.50*11
$GNGSA,A,3,80,82,,,,,,,,,,,2.19,1.61,1.50*16
$GPGSV,3,1,10,02,48,081,36,06,24,128,35,12,58,174,38,14,21,242,26*74
$GPGSV,3,2,10,15,08,350,23,24,70,021,33,25,38,230,24,29,37,303,20*76
$GPGSV,3,3,10,42,45,040,32,50,41,047,30*7A
$GLGSV,2,1,06,73,41,203,26,79,18,052,27,80,68,102,37,82,47,153,29*65
$GLGSV,2,2,06,83,68,319,,84,15,327,*63
$GNGLL,3157.10437,S,11549.42694,E,033551.00,A,A*6F
$GNRMC,033552.00,A,3157.10416,S,11549.42680,E,0.196,,270115,,,A*7D
$GNVTG,,T,,M,0.196,N,0.362,K,A*34
$GNGGA,033552.00,3157.10416,S,11549.42680,E,1,07,1.61,46.7,M,-30.8,M,,*4D
$GNGSA,A,3,06,12,24,02,15,,,,,,,,2.19,1.61,1.50*11
$GNGSA,A,3,80,82,,,,,,,,,,,2.19,1.61,1.50*16
$GPGSV,3,1,10,02,48,081,37,06,24,128,35,12,58,174,38,14,21,242,26*75
$GPGSV,3,2,10,15,08,350,23,24,70,021,34,25,38,230,26,29,37,303,15*75
$GPGSV,3,3,10,42,45,040,31,50,41,047,29*71
$GLGSV,2,1,06,73,41,203,27,79,18,052,27,80,68,102,34,82,47,153,28*66
$GLGSV,2,2,06,83,68,319,,84,15,327,*63
$GNGLL,3157.10416,S,11549.42680,E,033552.00,A,A*6A
$GNRMC,033553.00,A,3157.10415,S,11549.42658,E,0.089,,270115,,,A*75
$GNVTG,,T,,M,0.089,N,0.165,K,A*3E
$GNGGA,033553.00,3157.10415,S,11549.42658,E,1,07,1.61,46.8,M,-30.8,M,,*45
$GNGSA,A,3,06,12,24,02,15,,,,,,,,2.19,1.61,1.50*11
$GNGSA,A,3,80,82,,,,,,,,,,,2.19,1.61,1.50*16
$GPGSV,3,1,10,02,48,081,38,06,24,128,35,12,58,174,37,14,21,242,26*75
$GPGSV,3,2,10,15,08,350,21,24,70,021,34,25,38,230,26,29,37,303,*73
$GPGSV,3,3,10,42,45,040,30,50,41,047,30*78
$GLGSV,2,1,06,73,41,203,28,79,18,052,27,80,68,102,39,82,47,153,34*69
$GLGSV,2,2,06,83,68,319,,84,15,327,*63
$GNGLL,3157.10415,S,11549.42658,E,033553.00,A,A*6D
$GNRMC,033554.00,A,3157.10432,S,11549.42638,E,0.157,,270115,,,A*73
$GNVTG,,T,,M,0.157,N,0.291,K,A*34
$GNGGA,033554.00,3157.10432,S,11549.42638,E,1,07,1.61,46.5,M,-30.8,M,,*4C
$GNGSA,A,3,06,12,24,02,15,,,,,,,,2.19,1.61,1.49*19
$GNGSA,A,3,80,82,,,,,,,,,,,2.19,1.61,1.49*1E
$GPGSV,3,1,10,02,48,081,41,06,24,128,35,12,58,174,29,14,21,242,26*74
$GPGSV,3,2,10,15,08,350,21,24,70,021,33,25,38,230,25,29,37,303,*77
$GPGSV,3,3,10,42,45,040,29,50,41,047,31*71
$GLGSV,2,1,06,73,41,203,28,79,18,052,27,80,68,102,37,82,47,153,39*6A
$GLGSV,2,2,06,83,68,319,,84,15,327,*63
$GNGLL,3157.10432,S,11549.42638,E,033554.00,A,A*69
$GNRMC,033555.00,A,3157.10419,S,11549.42671,E,0.196,,270115,,,A*7B
$GNVTG,,T,,M,0.196,N,0.363,K,A*35
$GNGGA,033555.00,3157.10419,S,11549.42671,E,1,07,1.61,46.6,M,-30.8,M,,*4A
$GNGSA,A,3,06,12,24,02,15,,,,,,,,2.19,1.61,1.49*19
$GNGSA,A,3,80,82,,,,,,,,,,,2.19,1.61,1.49*1E
$GPGSV,3,1,10,02,48,081,37,06,24,128,32,12,58,174,38,14,21,242,25*71
$GPGSV,3,2,10,15,08,350,22,24,70,021,33,25,38,230,26,29,37,303,22*77
$GPGSV,3,3,10,42,45,040,30,50,41,047,30*78
$GLGSV,2,1,06,73,41,203,28,79,18,052,26,80,68,102,35,82,47,153,31*61
$GLGSV,2,2,06,83,68,319,25,84,15,327,*64
$GNGLL,3157.10419,S,11549.42671,E,033555.00,A,A*6C
$GNRMC,033556.00,A,3157.10405,S,11549.42685,E,0.218,,270115,,,A*7B
$GNVTG,,T,,M,0.218,N,0.404,K,A*36
$GNGGA,033556.00,3157.10405,S,11549.42685,E,1,07,1.61,46.6,M,-30.8,M,,*4F
$GNGSA,A,3,06,12,24,02,15,,,,,,,,2.19,1.61,1.49*19
$GNGSA,A,3,80,82,,,,,,,,,,,2.19,1.61,1.49*1E
$GPGSV,3,1,10,02,48,081,38,06,24,128,31,12,58,174,39,14,21,242,23*7A
$GPGSV,3,2,10,15,08,350,23,24,70,021,33,25,38,230,27,29,37,303,21*74
$GPGSV,3,3,10,42,45,040,31,50,41,047,30*79
$GLGSV,2,1,06,73,41,203,29,79,18,052,26,80,68,102,36,82,47,153,30*62
$GLGSV,2,2,06,83,68,319,24,84,15,327,*65
$GNGLL,3157.10405,S,11549.42685,E,033556.00,A,A*69
$GNRMC,033557.00,A,3157.10392,S,11549.42696,E,0.209,,270115,,,A*71
$GNVTG,,T,,M,0.209,N,0.387,K,A*3A
$GNGGA,033557.00,3157.10392,S,11549.42696,E,1,07,1.61,46.6,M,-30.8,M,,*45
$GNGSA,A,3,06,12,24,02,15,,,,,,,,2.19,1.61,1.49*19
$GNGSA,A,3,80,82,,,,,,,,,,,2.19,1.61,1.49*1E
$GPGSV,3,1,10,02,48,081,38,06,24,128,31,12,58,174,38,14,21,242,21*79
$GPGSV,3,2,10,15,08,350,24,24,70,021,34,25,38,230,28,29,37,303,21*7B
$GPGSV,3,3,10,42,45,040,31,50,41,047,30*79
$GLGSV,2,1,06,73,41,203,28,79,18,052,26,80,68,102,35,82,47,153,30*60
$GLGSV,2,2,06,83,68,319,23,84,15,327,*62
$GNGLL,3157.10392,S,11549.42696,E,033557.00,A,A*63
$GNRMC,033558.00,A,3157.10379,S,11549.42711,E,0.164,,270115,,,A*7D
$GNVTG,,T,,M,0.164,N,0.304,K,A*39
$GNGGA,033558.00,3157.10379,S,11549.42711,E,1,07,1.61,46.6,M,-30.8,M,,*41
$GNGSA,A,3,06,12,24,02,15,,,,,,,,2.19,1.61,1.49*19
$GNGSA,A,3,80,82,,,,,,,,,,,2.19,1.61,1.49*1E
$GPGSV,3,1,10,02,48,081,38,06,24,128,31,12,58,174,39,14,21,242,20*79
$GPGSV,3,2,10,15,08,350,23,24,70,021,34,25,38,230,28,29,37,303,22*7F
$GPGSV,3,3,10,42,45,040,31,50,41,047,30*79
$GLGSV,2,1,06,73,41,203,33,79,18,052,28,80,68,102,39,82,47,153,33*6B
$GLGSV,2,2,06,83,68,319,25,84,15,327,*64
$GNGLL,3157.10379,S,11549.42711,E,033558.00,A,A*67
$GNRMC,033559.00,A,3157.10371,S,11549.42716,E,0.233,,270115,,,A*72
$GNVTG,,T,,M,0.233,N,0.431,K,A*39
$GNGGA,033559.00,3157.10371,S,11549.42716,E,1,07,1.61,46.7,M,-30.8,M,,*4E
$GNGSA,A,3,06,12,24,02,15,,,,,,,,2.19,1.61,1.49*19
$GNGSA,A,3,80,82,,,,,,,,,,,2.19,1.61,1.49*1E
$GPGSV,3,1,10,02,48,081,38,06,24,128,31,12,58,174,39,14,21,242,18*72
$GPGSV,3,2,10,15,08,350,23,24,70,021,33,25,38,230,28,29,37,303,20*7A
$GPGSV,3,3,10,42,45,040,31,50,41,047,30*79
$GLGSV,2,1,06,73,42,203,29,79,18,052,28,80,68,102,37,82,47,153,31*6F
$GLGSV,2,2,06,83,68,319,25,84,15,327,*64
$GNGLL,3157.10371,S,11549.42716,E,033559.00,A,A*69
$GNRMC,033600.00,A,3157.10373,S,11549.42715,E,0.185,,270115,,,A*72
$GNVTG,,T,,M,0.185,N,0.343,K,A*35
$GNGGA,033600.00,3157.10373,S,11549.42715,E,1,08,1.47,46.5,M,-30.8,M,,*49
$GNGSA,A,3,50,06,12,24,02,15,,,,,,,2.07,1.47,1.46*18
$GNGSA,A,3,80,82,,,,,,,,,,,2.07,1.47,1.46*1A
$GPGSV,3,1,10,02,48,081,38,06,24,128,32,12,58,174,36,14,21,242,19*7F
$GPGSV,3,2,10,15,08,350,23,24,70,021,33,25,38,230,28,29,37,303,20*7A
$GPGSV,3,3,10,42,45,040,30,50,41,047,30*78
$GLGSV,2,1,06,73,42,203,28,79,18,052,27,80,68,102,36,82,47,153,36*67
$GLGSV,2,2,06,83,68,319,25,84,15,327,*64
$GNGLL,3157.10373,S,11549.42715,E,033600.00,A,A*67
$GNRMC,033601.00,A,3157.10376,S,11549.42715,E,0.112,,270115,,,A*78
$GNVTG,,T,,M,0.112,N,0.207,K,A*3A
$GNGGA,033601.00,3157.10376,S,11549.42715,E,1,08,1.47,46.6,M,-30.8,M,,*4E
$GNGSA,A,3,50,06,12,24,02,15,,,,,,,2.07,1.47,1.46*18
$GNGSA,A,3,80,82,,,,,,,,,,,2.07,1.47,1.46*1A
$GPGSV,3,1,10,02,48,081,37,06,24,128,32,12,58,174,37,14,21,242,19*71
$GPGSV,3,2,10,15,08,350,21,24,70,021,37,25,38,230,28,29,37,303,23*7F
$GPGSV,3,3,10,42,45,040,31,50,41,047,32*7B
$GLGSV,2,1,06,73,42,203,28,79,18,052,28,80,68,102,39,82,47,153,39*68
$GLGSV,2,2,06,83,68,319,25,84,15,327,*64
$GNGLL,3157.10376,S,11549.42715,E,033601.00,A,A*63
$GNRMC,033602.00,A,3157.10363,S,11549.42725,E,0.255,,270115,,,A*7C
$GNVTG,,T,,M,0.255,N,0.473,K,A*3F
$GNGGA,033602.00,3157.10363,S,11549.42725,E,1,08,1.47,46.6,M,-30.8,M,,*4A
$GNGSA,A,3,50,06,12,24,02,15,,,,,,,2.07,1.47,1.46*18
$GNGSA,A,3,80,82,,,,,,,,,,,2.07,1.47,1.46*1A
$GPGSV,3,1,10,02,48,081,36,06,24,128,32,12,58,174,38,14,21,242,17*71
$GPGSV,3,2,10,15,08,350,19,24,70,021,37,25,38,230,28,29,37,303,22*75
$GPGSV,3,3,10,42,45,040,33,50,41,047,32*79
$GLGSV,2,1,06,73,42,203,28,79,18,052,28,80,68,102,36,82,47,153,35*6B
$GLGSV,2,2,06,83,68,319,23,84,15,327,*62
$GNGLL,3157.10363,S,11549.42725,E,033602.00,A,A*67
$GNRMC,033603.00,A,3157.10349,S,11549.42747,E,0.138,,270115,,,A*79
$GNVTG,,T,,M,0.138,N,0.255,K,A*35
$GNGGA,033603.00,3157.10349,S,11549.42747,E,1,08,1.47,46.6,M,-30.8,M,,*47
$GNGSA,A,3,50,06,12,24,02,15,,,,,,,2.07,1.47,1.46*18
$GNGSA,A,3,80,82,,,,,,,,,,,2.07,1.47,1.46*1A
$GPGSV,3,1,10,02,48,081,36,06,24,128,32,12,58,174,39,14,21,242,11*76
$GPGSV,3,2,10,15,08,350,18,24,70,021,37,25,38,230,28,29,37,303,22*74
$GPGSV,3,3,10,42,45,040,33,50,41,047,32*79
$GLGSV,2,1,06,73,42,203,27,79,18,052,28,80,68,102,36,82,47,153,34*65
$GLGSV,2,2,06,83,68,319,23,84,15,327,*62
$GNGLL,3157.10349,S,11549.42747,E,033603.00,A,A*6A
$GNRMC,033604.00,A,3157.10343,S,11549.42760,E,0.098,,270115,,,A*7A
$GNVTG,,T,,M,0.098,N,0.181,K,A*34
$GNGGA,033604.00,3157.10343,S,11549.42760,E,1,08,1.47,46.5,M,-30.8,M,,*4C
$GNGSA,A,3,50,06,12,24,02,15,,,,,,,2.07,1.47,1.46*18
$GNGSA,A,3,80,82,,,,,,,,,,,2.07,1.47,1.46*1A
$GPGSV,3,1,10,02,48,081,37,06,24,128,31,12,58,174,38,14,21,242,*75
$GPGSV,3,2,10,15,08,350,19,24,70,021,38,25,38,230,27,29,37,303,23*74
$GPGSV,3,3,10,42,45,040,33,50,41,047,33*78
$GLGSV,2,1,06,73,42,203,27,79,18,052,27,80,68,102,36,82,47,153,34*6A
$GLGSV,2,2,06,83,68,319,22,84,15,327,*63
$GNGLL,3157.10343,S,11549.42760,E,033604.00,A,A*62
$GNRMC,033605.00,A,3157.10337,S,11549.42779,E,0.200,,270115,,,A*73
$GNVTG,,T,,M,0.200,N,0.370,K,A*3B
$GNGGA,033605.00,3157.10337,S,11549.42779,E,1,08,1.47,46.3,M,-30.8,M,,*40
$GNGSA,A,3,50,06,12,24,02,15,,,,,,,2.07,1.47,1.46*18
$GNGSA,A,3,80,82,,,,,,,,,,,2.07,1.47,1.46*1A
$GPGSV,3,1,10,02,48,081,36,06,24,128,31,12,58,174,39,14,21,242,*75
$GPGSV,3,2,10,15,08,350,18,24,70,021,38,25,38,230,27,29,37,303,23*75
$GPGSV,3,3,10,42,45,040,33,50,41,047,33*78
$GLGSV,2,1,06,73,42,203,27,79,18,052,27,80,68,102,36,82,47,153,35*6B
$GLGSV,2,2,06,83,68,319,21,84,15,327,*60
$GNGLL,3157.10337,S,11549.42779,E,033605.00,A,A*68
$GNRMC,033606.00,A,3157.10339,S,11549.42802,E,0.253,,270115,,,A*7B
$GNVTG,,T,,M,0.253,N,0.469,K,A*32
$GNGGA,033606.00,3157.10339,S,11549.42802,E,1,08,1.47,46.3,M,-30.8,M,,*4E
$GNGSA,A,3,50,06,12,24,02,15,,,,,,,2.07,1.47,1.46*18
$GNGSA,A,3,80,82,,,,,,,,,,,2.07,1.47,1.46*1A
$GPGSV,3,1,10,02,48,081,36,06,24,128,31,12,58,174,38,14,21,242,*74
$GPGSV,3,2,10,15,08,350,17,24,70,021,38,25,38,230,27,29,37,303,25*7C
$GPGSV,3,3,10,42,45,040,33,50,41,047,33*78
$GLGSV,2,1,06,73,42,203,29,79,18,052,27,80,68,101,38,82,47,153,37*6A
$GLGSV,2,2,06,83,68,319,21,84,15,327,*60
$GNGLL,3157.10339,S,11549.42802,E,033606.00,A,A*66
$GNRMC,033607.00,A,3157.10350,S,11549.42829,E,0.324,,270115,,,A*7D
$GNVTG,,T,,M,0.324,N,0.601,K,A*3F
$GNGGA,033607.00,3157.10350,S,11549.42829,E,1,09,1.33,46.1,M,-30.8,M,,*49
$GNGSA,A,3,50,06,12,24,02,15,,,,,,,1.94,1.33,1.42*16
$GNGSA,A,3,80,79,82,,,,,,,,,,1.94,1.33,1.42*1A
$GPGSV,3,1,10,02,48,081,37,06,24,128,31,12,58,174,40,14,21,242,*7A
$GPGSV,3,2,10,15,08,350,16,24,70,021,39,25,38,230,27,29,37,303,25*7C
$GPGSV,3,3,10,42,45,040,33,50,41,047,33*78
$GLGSV,2,1,06,73,42,203,31,79,18,052,29,80,68,101,39,82,47,153,37*6C
$GLGSV,2,2,06,83,68,319,24,84,15,327,*65
$GNGLL,3157.10350,S,11549.42829,E,033607.00,A,A*61
$GNRMC,033608.00,A,3157.10361,S,11549.42846,E,0.265,,270115,,,A*7D
$GNVTG,,T,,M,0.265,N,0.492,K,A*33
$GNGGA,033608.00,3157.10361,S,11549.42846,E,1,09,1.33,45.9,M,-30.8,M,,*46
$GNGSA,A,3,50,06,12,24,02,15,,,,,,,1.94,1.33,1.42*16
$GNGSA,A,3,80,79,82,,,,,,,,,,1.94,1.33,1.42*1A
$GPGSV,3,1,10,02,48,081,37,06,24,128,31,12,58,174,39,14,21,242,*74
$GPGSV,3,2,10,15,08,350,16,24,70,021,38,25,38,230,27,29,37,303,26*7E
$GPGSV,3,3,10,42,45,040,33,50,41,047,33*78
$GLGSV,2,1,06,73,42,203,34,79,18,052,29,80,68,101,40,82,47,153,37*67
$GLGSV,2,2,06,83,68,319,23,84,15,327,*62
$GNGLL,3157.10361,S,11549.42846,E,033608.00,A,A*65
$GNRMC,033609.00,A,3157.10377,S,11549.42861,E,0.137,,270115,,,A*7A
$GNVTG,,T,,M,0.137,N,0.253,K,A*3C
$GNGGA,033609.00,3157.10377,S,11549.42861,E,1,10,1.09,45.7,M,-30.8,M,,*4A
$GNGSA,A,3,50,06,12,24,02,15,,,,,,,1.75,1.09,1.37*12
$GNGSA,A,3,80,79,73,82,,,,,,,,,1.75,1.09,1.37*1A
$GPGSV,3,1,10,02,48,081,37,06,24,128,30,12,58,174,38,14,21,242,*74
$GPGSV,3,2,10,15,08,350,16,24,70,021,38,25,38,230,28,29,37,303,26*71
$GPGSV,3,3,10,42,45,040,33,50,41,047,32*79
$GLGSV,2,1,06,73,42,203,31,79,18,052,28,80,68,101,36,82,47,153,33*66
$GLGSV,2,2,06,83,69,318,21,84,15,327,*60
$GNGLL,3157.10377,S,11549.42861,E,033609.00,A,A*66
$GNRMC,033610.00,A,3157.10395,S,11549.42887,E,0.053,,270115,,,A*75
$GNVTG,,T,,M,0.053,N,0.098,K,A*3A
$GNGGA,033610.00,3157.10395,S,11549.42887,E,1,10,1.13,45.5,M,-30.8,M,,*4F
$GNGSA,A,3,50,06,12,24,02,15,,,,,,,1.80,1.13,1.41*12
$GNGSA,A,3,80,79,73,82,,,,,,,,,1.80,1.13,1.41*1A
$GPGSV,3,1,10,02,48,081,37,06,24,128,30,12,58,174,39,14,21,242,*75
$GPGSV,3,2,10,15,08,350,16,24,70,021,39,25,38,230,28,29,37,303,26*70
$GPGSV,3,3,10,42,45,040,33,50,41,047,32*79
$GLGSV,2,1,06,73,42,203,30,79,18,052,28,80,68,101,38,82,47,153,34*6E
$GLGSV,2,2,06,83,69,318,19,84,15,326,*6A
$GNGLL,3157.10395,S,11549.42887,E,033610.00,A,A*6A
$GNRMC,033611.00,A,3157.10409,S,11549.42898,E,0.167,,270115,,,A*7E
$GNVTG,,T,,M,0.167,N,0.309,K,A*37
$GNGGA,033611.00,3157.10409,S,11549.42898,E,1,10,1.13,45.1,M,-30.8,M,,*46
$GNGSA,A,3,50,06,12,24,02,15,,,,,,,1.80,1.13,1.40*13
$GNGSA,A,3,80,79,73,82,,,,,,,,,1.80,1.13,1.40*1B
$GPGSV,3,1,10,02,48,081,38,06,24,128,29,12,58,174,38,14,21,242,*73
$GPGSV,3,2,10,15,08,350,15,24,70,021,39,25,38,230,28,29,37,303,27*72
$GPGSV,3,3,10,42,45,040,32,50,41,047,33*79
$GLGSV,2,1,06,73,42,203,29,79,18,052,26,80,68,101,37,82,47,153,36*65
$GLGSV,2,2,06,83,69,318,16,84,15,326,*65
$GNGLL,3157.10409,S,11549.42898,E,033611.00,A,A*67
$GNRMC,033612.00,A,3157.10426,S,11549.42913,E,0.160,,270115,,,A*75
$GNVTG,,T,,M,0.160,N,0.296,K,A*37
$GNGGA,033612.00,3157.10426,S,11549.42913,E,1,10,1.09,44.8,M,-30.8,M,,*49
$GNGSA,A,3,50,06,12,24,02,15,,,,,,,1.75,1.09,1.37*12
$GNGSA,A,3,80,79,73,82,,,,,,,,,1.75,1.09,1.37*1A
$GPGSV,3,1,10,02,48,081,38,06,24,128,29,12,58,174,37,14,21,242,*7C
$GPGSV,3,2,10,15,08,350,18,24,70,021,39,25,38,230,27,29,37,303,27*70
$GPGSV,3,3,10,42,45,040,32,50,41,047,33*79
$GLGSV,2,1,06,73,42,203,29,79,18,052,26,80,68,101,37,82,47,153,34*67
$GLGSV,2,2,06,83,69,318,12,84,15,326,*61
$GNGLL,3157.10426,S,11549.42913,E,033612.00,A,A*6B
$GNRMC,033613.00,A,3157.10443,S,11549.42931,E,0.089,,270115,,,A*71
$GNVTG,,T,,M,0.089,N,0.165,K,A*3E
$GNGGA,033613.00,3157.10443,S,11549.42931,E,1,10,1.09,44.6,M,-30.8,M,,*45
$GNGSA,A,3,50,06,12,24,02,15,,,,,,,1.75,1.09,1.37*12
$GNGSA,A,3,80,79,73,82,,,,,,,,,1.75,1.09,1.37*1A
$GPGSV,3,1,10,02,48,081,38,06,24,128,29,12,58,174,37,14,21,242,*7C
$GPGSV,3,2,10,15,08,350,19,24,70,021,39,25,38,230,26,29,37,303,26*71
$GPGSV,3,3,10,42,45,040,32,50,41,047,33*79
$GLGSV,2,1,06,73,42,203,30,79,18,052,27,80,68,101,37,82,47,153,34*6E
$GLGSV,2,2,06,83,69,318,13,84,15,326,*60
$GNGLL,3157.10443,S,11549.42931,E,033613.00,A,A*69
$GNRMC,033614.00,A,3157.10459,S,11549.42949,E,0.148,,270115,,,A*7E
$GNVTG,,T,,M,0.148,N,0.274,K,A*31
$GNGGA,033614.00,3157.10459,S,11549.42949,E,1,10,1.09,44.5,M,-30.8,M,,*45
$GNGSA,A,3,50,06,12,24,02,15,,,,,,,1.75,1.09,1.37*12
$GNGSA,A,3,80,79,73,82,,,,,,,,,1.75,1.09,1.37*1A
$GPGSV,3,1,10,02,48,081,38,06,24,128,28,12,58,174,38,14,21,242,*72
$GPGSV,3,2,10,15,08,350,19,24,70,021,39,25,38,230,26,29,37,303,26*71
$GPGSV,3,3,10,42,45,040,33,50,41,047,33*78
$GLGSV,2,1,06,73,42,203,32,79,18,052,29,80,68,101,39,82,47,153,36*6E
$GLGSV,2,2,06,83,69,318,18,84,15,326,*6B
$GNGLL,3157.10459,S,11549.42949,E,033614.00,A,A*6A
$GNRMC,033615.00,A,3157.10477,S,11549.42965,E,0.120,,270115,,,A*73
